[{"id": 1, "nombre": "Caseta Cobro Nro 4 TEPOTZOTLAN", "lat": 19.7153804, "lon": -99.2073767}, {"id": 2, "nombre": "Caseta de Cobro Tijuana-Tecate", "lat": 32.545631, "lon": -116.8521103}, {"id": 3, "nombre": "Rosarito", "lat": 32.3111308, "lon": -117.0445517}, {"id": 4, "nombre": "Plaza de Cobro Playas de Tijuana Nro 34 Km 11 + 000", "lat": 32.514042, "lon": -117.1094557}, {"id": 5, "nombre": "PLAZA DE COBRO 7 SAN MARCOS", "lat": 19.2962185, "lon": -98.8706606}, {"id": 6, "nombre": "Caseta de Cobro LA JOYA", "lat": 20.6053977, "lon": -103.1394116}, {"id": 7, "nombre": "Caseta", "lat": 19.3948352, "lon": -99.2954753}, {"id": 8, "nombre": "Caseta", "lat": 19.3489671, "lon": -99.3067057}, {"id": 9, "nombre": "Caseta", "lat": 19.616132, "lon": -98.9483738}, {"id": 10, "nombre": "Caseta de OCOTLAN Km 425 + 950", "lat": 20.4058447, "lon": -102.7389816}, {"id": 11, "nombre": "Caseta de Cobro TEPATITLAN", "lat": 20.8245956, "lon": -102.794882}, {"id": 12, "nombre": "Plaza de Cobro Alpuyeca 101", "lat": 18.7224734, "lon": -99.25993}, {"id": 13, "nombre": "Caseta de Cobro 101 Alpuyeca", "lat": 18.8027084, "lon": -99.2198708}, {"id": 14, "nombre": "Plaza de Cobro Seybaplaya KM 132 + 000", "lat": 19.6360933, "lon": -90.6715564}, {"id": 15, "nombre": "Caseta de Cobro N39 USUMACINTA Km 145 + 200", "lat": 17.85989, "lon": -91.7836261}, {"id": 16, "nombre": "Caseta de Cobro La Antigua", "lat": 19.3203709, "lon": -96.3108864}, {"id": 17, "nombre": "Caseta Durango Km 15 + 900", "lat": 24.1317098, "lon": -104.5340496}, {"id": 18, "nombre": "Caseta de Cobro Nro 5 PALMILLAS", "lat": 20.2959356, "lon": -99.9291861}, {"id": 19, "nombre": "Caseta de Cobro CUENCAME Km 143 + 360", "lat": 24.9803665, "lon": -103.7343237}, {"id": 20, "nombre": "Caseta", "lat": 19.5930864, "lon": -103.5934462}, {"id": 21, "nombre": "Caseta", "lat": 18.8528586, "lon": -99.6700947}, {"id": 22, "nombre": "Caseta de Cobro Nro 165 ZURUMUCAPIO", "lat": 19.4412755, "lon": -101.8822496}, {"id": 23, "nombre": "Caseta de Cobro Nro 175 SANATA CASILDA", "lat": 19.1529469, "lon": -101.978118}, {"id": 24, "nombre": "Caseta de Cobro Nro 163 LA CUCHILLA", "lat": 25.6269482, "lon": -102.8783306}, {"id": 25, "nombre": "Casera de Cobro Nro 162 PLAN DE AYALA", "lat": 25.4441563, "lon": -101.303891}, {"id": 26, "nombre": "Caseta Metlapil", "lat": 16.8556921, "lon": -99.7539342}, {"id": 27, "nombre": "Caseta de Cobro 84 Tejocotal", "lat": 20.1473067, "lon": -98.285801}, {"id": 28, "nombre": "Caseta", "lat": 20.1492948, "lon": -98.2879296}, {"id": 29, "nombre": "Caseta", "lat": 19.0726501, "lon": -104.2706665}, {"id": 30, "nombre": "Caseta Ojo Laguna", "lat": 29.4816792, "lon": -106.40668}, {"id": 31, "nombre": "Plaza de Cobro Nro 79 Huitzo KM 221 + 000", "lat": 17.2750667, "lon": -96.9152782}, {"id": 32, "nombre": "Plaza de Cobro Huitzo", "lat": 17.2786672, "lon": -96.9146355}, {"id": 33, "nombre": "Caseta de Cobro NUEVO PROGRESO", "lat": 26.0363389, "lon": -97.9544488}, {"id": 34, "nombre": "Caseta de Cobro ECUANDUREO Km 360 + 040", "lat": 20.1749853, "lon": -102.1913384}, {"id": 35, "nombre": "Caseta", "lat": 19.602242, "lon": -99.0373826}, {"id": 36, "nombre": "Caseta", "lat": 19.6940909, "lon": -99.0801749}, {"id": 37, "nombre": "Caseta", "lat": 19.8199956, "lon": -99.2399507}, {"id": 38, "nombre": "Caseta de Cobro QUERETARO", "lat": 20.5720282, "lon": -100.4728226}, {"id": 39, "nombre": "Caseta de Cobro Nro 41 SALAMANCA", "lat": 20.598375, "lon": -101.1809641}, {"id": 40, "nombre": "Caseta de Cobro LEON Linea 5", "lat": 21.0813596, "lon": -101.7460487}, {"id": 41, "nombre": "Via Atlixcayotl", "lat": 19.0053826, "lon": -98.2705093}, {"id": 42, "nombre": "Caseta", "lat": 20.9824494, "lon": -101.2900591}, {"id": 43, "nombre": "Caseta", "lat": 16.8858778, "lon": -99.8392651}, {"id": 44, "nombre": "Caseta", "lat": 25.7876418, "lon": -100.1685546}, {"id": 45, "nombre": "Caseta de Cobro SAN LUIS RIO COLORADO", "lat": 32.4917013, "lon": -114.808728}, {"id": 46, "nombre": "Caseta", "lat": 18.8381262, "lon": -99.2165776}, {"id": 47, "nombre": "Plaza de Cobro 104", "lat": 16.9284073, "lon": -99.8019495}, {"id": 48, "nombre": "Caseta de Cobro LEON GUZMAN Km 213 + 070", "lat": 25.5206416, "lon": -103.6394903}, {"id": 49, "nombre": "Caseta de Cobro COSTA RICA", "lat": 24.5702838, "lon": -107.4301241}, {"id": 50, "nombre": "Caseta", "lat": 24.7488034, "lon": -107.4621779}, {"id": 51, "nombre": "Caseta de Cobro 152 HERMOSILLO", "lat": 29.2206802, "lon": -110.9303552}, {"id": 52, "nombre": "Caseta de Cobro N\u00famero 153 MAGDALENA", "lat": 30.6292707, "lon": -110.9486416}, {"id": 53, "nombre": "Caseta de Cobro Puente Tampico", "lat": 22.2183644, "lon": -97.8247785}, {"id": 54, "nombre": "Caseta de Cobre TECATE", "lat": 32.5259247, "lon": -116.6902443}, {"id": 55, "nombre": "Caseta", "lat": 19.6118742, "lon": -99.0257401}, {"id": 56, "nombre": "Caseta", "lat": 19.2392125, "lon": -96.2580489}, {"id": 57, "nombre": "Caseta de Cobro CALERA Km 26+850", "lat": 22.9418288, "lon": -102.6899947}, {"id": 58, "nombre": "Caseta de Cobro CHIAPA DE CORZO Km 1 +300", "lat": 16.7307175, "lon": -93.0094416}, {"id": 59, "nombre": "Caseta Pinotepa", "lat": 16.8300956, "lon": -99.7592532}, {"id": 60, "nombre": "La Hortaliza", "lat": 19.3814241, "lon": -99.804679}, {"id": 61, "nombre": "Caseta", "lat": 19.3758375, "lon": -99.5493819}, {"id": 62, "nombre": "Cuapiaxtla", "lat": 19.3103953, "lon": -97.7975507}, {"id": 63, "nombre": "Amozoc III", "lat": 19.0635853, "lon": -98.0690253}, {"id": 64, "nombre": "Caseta", "lat": 19.5516915, "lon": -97.2894339}, {"id": 65, "nombre": "Caseta de Cobro Nro 127 CHICHIMEQUILLAS Km 20 + 600", "lat": 20.705515, "lon": -100.3437611}, {"id": 66, "nombre": "Caseta", "lat": 17.3927303, "lon": -92.0001002}, {"id": 67, "nombre": "Caseta de Cobro No. 56 C BIS- TAXCO", "lat": 18.5886171, "lon": -99.5599277}, {"id": 68, "nombre": "Plaza de Cobro PALO BLANCO", "lat": 17.4238424, "lon": -99.4669234}, {"id": 69, "nombre": "Caseta", "lat": 19.3291566, "lon": -99.2131741}, {"id": 70, "nombre": "Caseta de Cobro SOLIDARIDAD", "lat": 27.6973719, "lon": -99.7478343}, {"id": 71, "nombre": "Caseta de Cobro 1 Bis TRES MARIA CB", "lat": 19.0563317, "lon": -99.2410492}, {"id": 72, "nombre": "Caseta de Cobro 1 Bis TRES MARIA CA", "lat": 19.050902, "lon": -99.2414264}, {"id": 73, "nombre": "Cuapiaxtla", "lat": 19.3042935, "lon": -97.8058049}, {"id": 74, "nombre": "5157", "lat": 19.5310254, "lon": -99.5273995}, {"id": 75, "nombre": "Caseta", "lat": 19.8614219, "lon": -98.0606446}, {"id": 76, "nombre": "Caseta de Cobro SANCTORUM", "lat": 19.5186666, "lon": -98.4718283}, {"id": 77, "nombre": "Caseta de Cobro SANCTORUM", "lat": 19.5127088, "lon": -98.4688486}, {"id": 78, "nombre": "Caseta de Cobro SANCTORUM", "lat": 19.5165668, "lon": -98.4692915}, {"id": 79, "nombre": "Caseta de Cobro CALPULALPAN Km 88 + 806.50", "lat": 19.6201312, "lon": -98.5470449}, {"id": 80, "nombre": "Palenque Entrance Station #1", "lat": 17.491752, "lon": -92.0252237}, {"id": 81, "nombre": "Caseta de Cobro Nro 24 TEPOZTLAN", "lat": 18.9868606, "lon": -99.1122984}, {"id": 82, "nombre": "Caseta de Cobro OACALCO Nro 25 Km 25 +300", "lat": 18.9310709, "lon": -99.0256507}, {"id": 83, "nombre": "Siglo XXI", "lat": 18.9163769, "lon": -98.4846804}, {"id": 84, "nombre": "Caseta de Cobro Nro 119 ACAYUCAN Km 0 + 200", "lat": 17.9101775, "lon": -94.9372891}, {"id": 85, "nombre": "Plaza de cobro Nro 76 Tehuac\u00e1n KM 41 + 050", "lat": 18.4871616, "lon": -97.4562327}, {"id": 86, "nombre": "Caseta", "lat": 19.048198, "lon": -98.0313089}, {"id": 87, "nombre": "Caseta de Cobro 27 Esperanza", "lat": 18.8708372, "lon": -97.3858274}, {"id": 88, "nombre": "Plaza de Cobro Nro 177 TOTOMOXTLE Entronque Cazones Km 181 +361", "lat": 20.4619709, "lon": -97.246006}, {"id": 89, "nombre": "Caseta", "lat": 19.3971121, "lon": -96.6215969}, {"id": 90, "nombre": "Caseta de Cobro No. 118 Cosamaloapan km 83 + 350", "lat": 18.334995, "lon": -95.8222495}, {"id": 91, "nombre": "Caseta", "lat": 19.0846712, "lon": -96.1968345}, {"id": 92, "nombre": "Caseta de Cobro AUCAL", "lat": 19.3015213, "lon": -98.4040116}, {"id": 93, "nombre": "Caseta de Cobro SAN MARTIN TEXMELUCA Km 129 + 000", "lat": 19.3018027, "lon": -98.4097053}, {"id": 94, "nombre": "Caseta de cobro ZIRAHUEN", "lat": 19.5055407, "lon": -101.6593601}, {"id": 95, "nombre": "Caseta de Cobro DOVALI BIS", "lat": 18.6128462, "lon": -91.8607689}, {"id": 96, "nombre": "Caseta de Cobro YERBANIS Km 112 + 724", "lat": 24.7306462, "lon": -103.8618627}, {"id": 97, "nombre": "Caseta de Cobro Ocozocoautla KM 89 +400", "lat": 16.738487, "lon": -93.4003792}, {"id": 98, "nombre": "Caseta de Cobro Nro 90 IXTEPEC A1", "lat": 16.561838, "lon": -95.1360442}, {"id": 99, "nombre": "Caseta de Cobro TEQUILA", "lat": 20.8541574, "lon": -103.8611954}, {"id": 100, "nombre": "Caseta", "lat": 20.5096605, "lon": -100.765287}, {"id": 101, "nombre": "Caseta de Cobro Nro 186 CERRO GORDO", "lat": 20.5902304, "lon": -101.1361332}, {"id": 102, "nombre": "Caseta de Cobro PACHUCA", "lat": 19.9273348, "lon": -98.8914534}, {"id": 103, "nombre": "Caseta de Cobro TARETAN Km 102+200", "lat": 19.3554483, "lon": -101.9179647}, {"id": 104, "nombre": "Caseta de Cobro LEON Km 23 + 500", "lat": 21.1026922, "lon": -101.7846001}, {"id": 105, "nombre": "Caseta", "lat": 24.0348389, "lon": -104.6520712}, {"id": 106, "nombre": "Caseta de Cobro MATAMOROS", "lat": 25.8913384, "lon": -97.5040203}, {"id": 107, "nombre": "Caseta", "lat": 23.8645185, "lon": -105.2332013}, {"id": 108, "nombre": "Caseta de Cobro Nro 47 LAS FLORES", "lat": 26.0605484, "lon": -97.9504047}, {"id": 109, "nombre": "Caseta de Cobro CD. SAHAGUN - 1", "lat": 19.7566949, "lon": -98.6283073}, {"id": 110, "nombre": "Caseta de Cobro TULANCINGO - 4", "lat": 19.8336895, "lon": -98.7013601}, {"id": 111, "nombre": "Caseta de Cobro A-6", "lat": 19.4872275, "lon": -99.0164031}, {"id": 112, "nombre": "Caseta", "lat": 19.3591029, "lon": -99.273589}, {"id": 113, "nombre": "Caseta de Cobro SANTA FE", "lat": 19.3633929, "lon": -99.2673148}, {"id": 114, "nombre": "Caseta de Cobro Nro 140 LA CARBONERA", "lat": 25.510931, "lon": -100.8682603}, {"id": 115, "nombre": "Caseta", "lat": 25.8335186, "lon": -100.3058235}, {"id": 116, "nombre": "Caseta de Cobro Nro 8 SAN MARTIN", "lat": 19.2410033, "lon": -98.3859325}, {"id": 117, "nombre": "Caseta", "lat": 19.8633126, "lon": -98.0561803}, {"id": 118, "nombre": "Caseta MEXICALI OMEGA", "lat": 32.5334849, "lon": -115.4207654}, {"id": 119, "nombre": "Caseta de Cobro REYNOSA PHARR", "lat": 26.0418085, "lon": -98.2087491}, {"id": 120, "nombre": "Caseta de Cobro REYNOSA", "lat": 26.0931888, "lon": -98.2709751}, {"id": 121, "nombre": "Caseta de Cobro CAMARGO", "lat": 26.3624625, "lon": -98.8063371}, {"id": 122, "nombre": "Caseta de Cobro", "lat": 28.3273286, "lon": -106.5503998}, {"id": 123, "nombre": "Caseta", "lat": 26.109679, "lon": -98.3448625}, {"id": 124, "nombre": "Caseta de Cobro ZINAPECUARO Km 202 + 256", "lat": 19.9017266, "lon": -100.7885322}, {"id": 125, "nombre": "Caseta", "lat": 19.1224853, "lon": -99.6020661}, {"id": 126, "nombre": "Caseta de Cobro SANTA MARIA DE ORO", "lat": 21.3269824, "lon": -104.664824}, {"id": 127, "nombre": "Caseta de Cobro TEQUEPEXPAN Km 154", "lat": 21.213736, "lon": -104.5926712}, {"id": 128, "nombre": "Caseta", "lat": 20.0762291, "lon": -101.1357798}, {"id": 129, "nombre": "Caseta", "lat": 20.373206, "lon": -101.1492466}, {"id": 130, "nombre": "Caseta ENTRONQUE PE\u00d1ON Km 4 + 080", "lat": 19.468842, "lon": -99.0044349}, {"id": 131, "nombre": "Plaza de Cobro FELICIANO", "lat": 18.006491, "lon": -101.9617804}, {"id": 132, "nombre": "Caseta de Cobro CULIACAN", "lat": 18.3362301, "lon": -99.50831}, {"id": 133, "nombre": "Cabina de peaje: Caseta Cuyutlan KM 61 + 350", "lat": 18.9277842, "lon": -104.0815136}, {"id": 134, "nombre": "Caseta", "lat": 20.4159063, "lon": -103.5570988}, {"id": 135, "nombre": "Caseta Sacramento", "lat": 28.8603289, "lon": -106.2164724}, {"id": 136, "nombre": "Caseta Galeana", "lat": 30.004377, "lon": -107.242521}, {"id": 137, "nombre": "Estaci\u00f3n de Inspecci\u00f3n de Aguascalientes", "lat": 21.6762458, "lon": -102.2887321}, {"id": 138, "nombre": "Caseta Miahuatl\u00e1n Nro 77 KM 71 +415", "lat": 18.2646791, "lon": -97.3155762}, {"id": 139, "nombre": "Plaza de Cobro ENSENADA Nro 36 KM 98 + 600", "lat": 31.9030159, "lon": -116.7327343}, {"id": 140, "nombre": "Caseta", "lat": 21.4901048, "lon": -101.7632816}, {"id": 141, "nombre": "Caseta de Cobro ENCARNACION Km 88+ 740", "lat": 21.4896993, "lon": -102.2431751}, {"id": 142, "nombre": "Caseta", "lat": 20.5066723, "lon": -100.8708425}, {"id": 143, "nombre": "Caseta de Cobro", "lat": 18.0134099, "lon": -94.3967242}, {"id": 144, "nombre": "Caseta", "lat": 18.014098, "lon": -94.4436063}, {"id": 145, "nombre": "Caseta de Cobro SAN JUAN A2", "lat": 21.2256566, "lon": -102.3136543}, {"id": 146, "nombre": "Caseta de Cobro Nro 179 LAS CHOAPAS", "lat": 17.9427077, "lon": -94.172223}, {"id": 147, "nombre": "Caseta de Cobro QUILA", "lat": 24.3965514, "lon": -107.271829}, {"id": 148, "nombre": "Caseta", "lat": 25.7848759, "lon": -100.4705393}, {"id": 149, "nombre": "Caseta", "lat": 25.7845481, "lon": -100.4753003}, {"id": 150, "nombre": "Caseta", "lat": 25.7820713, "lon": -100.4728816}, {"id": 151, "nombre": "Caseta de Cobro MORFIN CHAVEZ Km 57 + 050", "lat": 23.1780054, "lon": -102.8285794}, {"id": 152, "nombre": "Caseta", "lat": 22.964859, "lon": -102.7136908}, {"id": 153, "nombre": "Caseta", "lat": 19.3807034, "lon": -99.5554433}, {"id": 154, "nombre": "Caseta Inicia Autopista Reynosa o Aeropuerto Mty", "lat": 25.6915903, "lon": -100.157771}, {"id": 155, "nombre": "Caseta", "lat": 25.7751915, "lon": -100.1595206}, {"id": 156, "nombre": "Caseta", "lat": 25.3932961, "lon": -108.127103}, {"id": 157, "nombre": "Caseta", "lat": 25.3948246, "lon": -108.129911}, {"id": 158, "nombre": "Caseta", "lat": 24.9488585, "lon": -107.5457466}, {"id": 159, "nombre": "Caseta", "lat": 19.5877635, "lon": -99.041786}, {"id": 160, "nombre": "Caseta", "lat": 19.8232468, "lon": -99.2354925}, {"id": 161, "nombre": "Caseta de Cobro Nro 44 LAS LE\u00d1AS", "lat": 18.5536609, "lon": -101.9729996}, {"id": 162, "nombre": "Caseta", "lat": 25.6628468, "lon": -99.6285941}, {"id": 163, "nombre": "Caseta de Cobro SANATA CASILDA", "lat": 19.1564193, "lon": -101.9761455}, {"id": 164, "nombre": "Caseta de Peaje Valle Hermoso A1", "lat": 20.2698266, "lon": -102.4391565}, {"id": 165, "nombre": "Estaci\u00f3n Yago", "lat": 21.8437674, "lon": -105.0854167}, {"id": 166, "nombre": "Estaci\u00f3n Yago", "lat": 21.8468608, "lon": -105.0852357}, {"id": 167, "nombre": "Acaponeta A2", "lat": 22.4540613, "lon": -105.4188382}, {"id": 168, "nombre": "Caseta de Cobro ROSARIO Km 99 + 486", "lat": 22.9851261, "lon": -105.8753186}, {"id": 169, "nombre": "Caseta de Cobro ROSARIO Km 99 + 486", "lat": 22.984701, "lon": -105.878102}, {"id": 170, "nombre": "Caseta", "lat": 19.3482471, "lon": -99.9895089}, {"id": 171, "nombre": "Caseta", "lat": 30.5934542, "lon": -111.5184963}, {"id": 172, "nombre": "Caseta", "lat": 16.8861549, "lon": -92.7253147}, {"id": 173, "nombre": "Caseta Atlacomulco", "lat": 19.7623682, "lon": -99.8557837}, {"id": 174, "nombre": "El Dorado", "lat": 19.4081605, "lon": -99.7161462}, {"id": 175, "nombre": "Caseta de Cobro LOMA REAL", "lat": 22.2764396, "lon": -97.8932902}, {"id": 176, "nombre": "Caseta", "lat": 26.0593854, "lon": -98.0801662}, {"id": 177, "nombre": "Caseta de Cobro La Rumorosa", "lat": 32.5625879, "lon": -116.0479746}, {"id": 178, "nombre": "Caseta de Cobro EL HONGO Km 92 + 105", "lat": 32.5210994, "lon": -116.3201383}, {"id": 179, "nombre": "Cantona", "lat": 19.5064221, "lon": -97.4954064}, {"id": 180, "nombre": "Cantona", "lat": 19.5089246, "lon": -97.4971899}, {"id": 181, "nombre": "Caseta", "lat": 20.1866245, "lon": -98.0298015}, {"id": 182, "nombre": "Agricultural Check Point", "lat": 27.9917441, "lon": -114.0130234}, {"id": 183, "nombre": "Caseta", "lat": 22.9537058, "lon": -102.6919879}, {"id": 184, "nombre": "Caseta Zacatelco", "lat": 19.2115366, "lon": -98.2649344}, {"id": 185, "nombre": "Caseta", "lat": 19.6373958, "lon": -99.1557164}, {"id": 186, "nombre": "Caseta", "lat": 19.637718, "lon": -99.164443}, {"id": 187, "nombre": "Caseta", "lat": 19.638266, "lon": -99.1592882}, {"id": 188, "nombre": "Caseta", "lat": 19.2933953, "lon": -98.8759776}, {"id": 189, "nombre": "Caseta", "lat": 19.3001164, "lon": -98.875218}, {"id": 190, "nombre": "Caseta de Cobro ACAMBAY", "lat": 19.9233577, "lon": -99.8442035}, {"id": 191, "nombre": "Caseta de Cobro AJOLOAPAN - 2", "lat": 19.9554814, "lon": -99.0527118}, {"id": 192, "nombre": "Caseta de Cobro AJOLOAPAN - 3", "lat": 19.9559178, "lon": -99.0553814}, {"id": 193, "nombre": "Caseta de cobro JILOTEPEC", "lat": 19.9765391, "lon": -99.5314863}, {"id": 194, "nombre": "Caseta de Cobro ATITALAQUIA", "lat": 20.0649666, "lon": -99.2186613}, {"id": 195, "nombre": "Caseta de Cobro TULA II - 2", "lat": 20.0703553, "lon": -99.3682302}, {"id": 196, "nombre": "Caseta de Cobro TULA II - 3", "lat": 20.0726666, "lon": -99.3698308}, {"id": 197, "nombre": "Caseta TULA I Km 79+ 835", "lat": 20.0982699, "lon": -99.286016}, {"id": 198, "nombre": "Caseta TULA I - 3 Km 79+ 835", "lat": 20.0981973, "lon": -99.2831603}, {"id": 199, "nombre": "Caseta TULA I Km 79+ 835", "lat": 20.099737, "lon": -99.2805327}, {"id": 200, "nombre": "Caseta de Cobro CADEREYTA", "lat": 25.6010606, "lon": -100.0057608}, {"id": 201, "nombre": "Ingreso al Diente", "lat": 20.7847841, "lon": -103.3990671}, {"id": 202, "nombre": "Caseta", "lat": 25.7905876, "lon": -100.4636098}, {"id": 203, "nombre": "Caseta de Cobro AGUALEGUAS A1", "lat": 26.3402431, "lon": -100.0704758}, {"id": 204, "nombre": "Caseta de Cobro Nro 108 SABINAS", "lat": 26.5120327, "lon": -100.0070537}, {"id": 205, "nombre": "Caseta de Cobro SABINAS AUX", "lat": 26.5083636, "lon": -100.0081185}, {"id": 206, "nombre": "Caseta de Peaje VALLECITOS", "lat": 26.6423599, "lon": -99.942194}, {"id": 207, "nombre": "Caseta", "lat": 20.5723483, "lon": -100.4808839}, {"id": 208, "nombre": "Caseta", "lat": 27.0331791, "lon": -104.9535603}, {"id": 209, "nombre": "Caseta de Cobro ZIRAHUEN A1", "lat": 19.4823786, "lon": -101.7310733}, {"id": 210, "nombre": "Caseta", "lat": 19.8854995, "lon": -101.0100499}, {"id": 211, "nombre": "Caseta", "lat": 19.7412123, "lon": -101.1005611}, {"id": 212, "nombre": "Caseta", "lat": 19.3817311, "lon": -99.8088317}, {"id": 213, "nombre": "Caseta", "lat": 19.354108, "lon": -99.9829305}, {"id": 214, "nombre": "Caseta Contepec", "lat": 19.8775852, "lon": -100.1763205}, {"id": 215, "nombre": "Caseta de Cobro JIMENEZ Km 11 + 800", "lat": 27.2449961, "lon": -104.933357}, {"id": 216, "nombre": "Caseta", "lat": 23.7063139, "lon": -105.5713146}, {"id": 217, "nombre": "Plaza de Cobro 176 SANCHEZ MAGALLANES", "lat": 18.0298973, "lon": -93.8131115}, {"id": 218, "nombre": "Caseta de Cobro Nro 71 CHALCO", "lat": 19.2920051, "lon": -98.8817083}, {"id": 219, "nombre": "PC 128 Gral. Savio", "lat": 25.8134049, "lon": -99.1695621}, {"id": 220, "nombre": "Caseta", "lat": 25.8118513, "lon": -99.1735922}, {"id": 221, "nombre": "Caseta de cobro Puente de Alvarado", "lat": 18.7698595, "lon": -95.7445804}, {"id": 222, "nombre": "Caseta de Cobro YOSTIRO Km 27 +160", "lat": 20.6011378, "lon": -101.4385365}, {"id": 223, "nombre": "Caseta", "lat": 25.9763832, "lon": -109.033599}, {"id": 224, "nombre": "Caseta", "lat": 19.7600104, "lon": -97.5482698}, {"id": 225, "nombre": "Payuca", "lat": 19.5216537, "lon": -97.6380849}, {"id": 226, "nombre": "Caseta de Cobro PUENTE PANUCO", "lat": 22.1487333, "lon": -98.1449659}, {"id": 227, "nombre": "Caseta", "lat": 22.203304, "lon": -97.9374469}, {"id": 228, "nombre": "Caseta de Cobro Nro 42 LAPIEDAD", "lat": 20.352782, "lon": -102.0252149}, {"id": 229, "nombre": "Caseta", "lat": 22.8463444, "lon": -102.5669902}, {"id": 230, "nombre": "Caseta de Cobro TEPATITLAN AUX.", "lat": 20.8208707, "lon": -102.7940187}, {"id": 231, "nombre": "Caseta de Cobro JALOSTOTITLAN Km 89 + 100", "lat": 21.1174825, "lon": -102.4580471}, {"id": 232, "nombre": "Caseta de Cobro TARETAN", "lat": 19.3519188, "lon": -101.9173301}, {"id": 233, "nombre": "Caseta de Cobro Nro 183 VILLAGRAN 2", "lat": 20.5794616, "lon": -100.9923635}, {"id": 234, "nombre": "Caseta de Cobro Nro 183 VILLAGRAN", "lat": 20.5822287, "lon": -100.9921709}, {"id": 235, "nombre": "Plaza de Cobros No 98 Mesillas", "lat": 23.2548967, "lon": -106.0538787}, {"id": 236, "nombre": "Plaza de Cobros Nro 98 Mesillas", "lat": 23.2586313, "lon": -106.0513116}, {"id": 237, "nombre": "Caseta Saucillo KM 116 + 400", "lat": 28.0464102, "lon": -105.3293121}, {"id": 238, "nombre": "Caseta de Cobros LAS ARANDAS 2 Km 0+ 080", "lat": 20.7335226, "lon": -101.3812215}, {"id": 239, "nombre": "Plaza de Cobro ARANDAS Km 5 + 110", "lat": 20.7374132, "lon": -101.379926}, {"id": 240, "nombre": "Caseta", "lat": 20.5467216, "lon": -101.1361848}, {"id": 241, "nombre": "Caseta de Cobro VALTERILLA A1 Km 104", "lat": 20.5530329, "lon": -101.1362264}, {"id": 242, "nombre": "Caseta de Cobro ENTRONQUE VALTERILLA A1 Km 102 +850", "lat": 20.5426357, "lon": -101.1377738}, {"id": 243, "nombre": "Caseta de Cobro n\u00b086 San Jos\u00e9 del Cabo", "lat": 23.0499541, "lon": -109.7195603}, {"id": 244, "nombre": "Caseta", "lat": 22.4403636, "lon": -100.3345952}, {"id": 245, "nombre": "Caseta", "lat": 22.4414117, "lon": -100.3394228}, {"id": 246, "nombre": "Caseta", "lat": 22.6302611, "lon": -100.1133608}, {"id": 247, "nombre": "Caseta", "lat": 21.8742266, "lon": -101.6008678}, {"id": 248, "nombre": "Caseta", "lat": 20.9300798, "lon": -97.6807119}, {"id": 249, "nombre": "Caseta de Cobro Compostela (53)", "lat": 21.229474, "lon": -104.887443}, {"id": 250, "nombre": "Caseta", "lat": 19.4584062, "lon": -99.0336318}, {"id": 251, "nombre": "Caseta", "lat": 19.452441, "lon": -100.2818953}, {"id": 252, "nombre": "Caseta", "lat": 16.9239437, "lon": -96.325602}, {"id": 253, "nombre": "Caseta de Cobro HUANIQUEO", "lat": 19.8826041, "lon": -101.5116374}, {"id": 254, "nombre": "Plaza de Cobro Nro 70 POLOTITLAN", "lat": 20.2252751, "lon": -99.8106796}, {"id": 255, "nombre": "Caseta", "lat": 21.8134255, "lon": -101.0126941}, {"id": 256, "nombre": "Caseta de Cobro PANINDICUARO Km 307 +273", "lat": 19.9720915, "lon": -101.7570374}, {"id": 257, "nombre": "Caseta de Cobro CEBALLOS Nro 161", "lat": 26.5865903, "lon": -104.0578745}, {"id": 258, "nombre": "Caseta", "lat": 29.0548655, "lon": -105.104734}, {"id": 259, "nombre": "Caseta", "lat": 32.6588095, "lon": -115.480987}, {"id": 260, "nombre": "Caseta de Cobro Nro 189 TEHUANTEPEC Km 1 + 890", "lat": 16.1621464, "lon": -95.289186}, {"id": 261, "nombre": "Caseta", "lat": 16.2573377, "lon": -93.8754767}, {"id": 262, "nombre": "Caseta de Cobro Nro 182 OCOZOCOAUTLA", "lat": 16.8631428, "lon": -93.4067945}, {"id": 263, "nombre": "Caseta", "lat": 19.346365, "lon": -99.253312}, {"id": 264, "nombre": "Caseta", "lat": 19.3450428, "lon": -99.2394703}, {"id": 265, "nombre": "Caseta de Cobro JALOSTOTITLAN Km 89 + 100", "lat": 21.1190754, "lon": -102.4557839}, {"id": 266, "nombre": "Caseta Cerritos", "lat": 22.4288875, "lon": -100.3203841}, {"id": 267, "nombre": "Caseta", "lat": 25.7572361, "lon": -99.3738444}, {"id": 268, "nombre": "Caseta de Cobre ENTRONQUE URIANGATO Km 58 + 646", "lat": 20.1829233, "lon": -101.1572774}, {"id": 269, "nombre": "Caseta de Cobro ENTRONQUE LA CINTA Km 45 + 770", "lat": 20.0734392, "lon": -101.1366032}, {"id": 270, "nombre": "Plaza de Cobro CUITZEO A2", "lat": 19.9683486, "lon": -101.1619609}, {"id": 271, "nombre": "Caseta de Cobro PLAYA 2P", "lat": 25.612421, "lon": -100.9135143}, {"id": 272, "nombre": "Plaza de Cobro P2 A2", "lat": 25.6162187, "lon": -100.9085313}, {"id": 273, "nombre": "Caseta Matehuala Omega", "lat": 23.6641001, "lon": -100.6062353}, {"id": 274, "nombre": "Caseta Camargo KM 73 + 300", "lat": 27.7309012, "lon": -105.197596}, {"id": 275, "nombre": "Caseta de Cobro Nogales", "lat": 31.2584051, "lon": -110.97459}, {"id": 276, "nombre": "Caseta", "lat": 19.7979574, "lon": -97.4554616}, {"id": 277, "nombre": "Caseta", "lat": 27.6090941, "lon": -107.5581744}, {"id": 278, "nombre": "Caseta", "lat": 19.6049126, "lon": -99.2058121}, {"id": 279, "nombre": "Caseta", "lat": 19.3317739, "lon": -99.3150873}, {"id": 280, "nombre": "Caseta", "lat": 19.3522463, "lon": -99.3057239}, {"id": 281, "nombre": "Caseta", "lat": 19.4175089, "lon": -99.2985206}, {"id": 282, "nombre": "Caseta Chamapa", "lat": 19.4401915, "lon": -99.2976658}, {"id": 283, "nombre": "Caseta Autov\u00eda San Luis", "lat": 21.9676112, "lon": -99.1746245}, {"id": 284, "nombre": "Caseta", "lat": 19.5448619, "lon": -99.276896}, {"id": 285, "nombre": "Caseta", "lat": 19.5477108, "lon": -99.2779521}, {"id": 286, "nombre": "Caseta", "lat": 19.6083086, "lon": -99.2383237}, {"id": 287, "nombre": "Caseta", "lat": 19.6351412, "lon": -99.20512}, {"id": 288, "nombre": "Caseta de Cobro Nro 1 TLALPAN", "lat": 19.2425039, "lon": -99.1487654}, {"id": 289, "nombre": "Caseta", "lat": 18.8375034, "lon": -96.7374548}, {"id": 290, "nombre": "Caseta de Cobro 116 Cuitl\u00e1huac KM 14 + 300", "lat": 18.8395674, "lon": -96.7468728}, {"id": 291, "nombre": "Caseta de Cobro 1P", "lat": 25.4483384, "lon": -101.0671446}, {"id": 292, "nombre": "T-2 Conmex", "lat": 19.5756436, "lon": -99.0203574}, {"id": 293, "nombre": "Caseta de Cobro \"A-5 Hank Glez\". Km. 37+578", "lat": 19.5848696, "lon": -99.0280453}, {"id": 294, "nombre": "Caseta Suchixtlahuaca", "lat": 17.7262661, "lon": -97.3519113}, {"id": 295, "nombre": "Caseta de Cobro Nro 181 MALPASITO", "lat": 17.3491375, "lon": -93.5854945}, {"id": 296, "nombre": "Caseata Plan de Barrancas Cuerpo A", "lat": 20.9475347, "lon": -104.0629129}, {"id": 297, "nombre": "Entrada Trepachanga", "lat": 31.6818979, "lon": -106.506325}, {"id": 298, "nombre": "Plaza de Cobro Puente Internacional Paso del Norte", "lat": 31.7458876, "lon": -106.486429}, {"id": 299, "nombre": "International Toll Booth", "lat": 31.6710108, "lon": -106.340186}, {"id": 300, "nombre": "Caseta VILLA AHUMADA Km 216 + 000", "lat": 30.4370633, "lon": -106.521834}, {"id": 301, "nombre": "Caseta de Cobro TECPAN Km 102+ 740", "lat": 17.1969736, "lon": -100.6267128}, {"id": 302, "nombre": "Caseta", "lat": 32.3359456, "lon": -117.0548515}, {"id": 303, "nombre": "Caseta", "lat": 19.5138502, "lon": -99.174846}, {"id": 304, "nombre": "Caseta", "lat": 25.6948944, "lon": -100.5691923}, {"id": 305, "nombre": "Caseta Puente Coatzacoalcos I", "lat": 18.1152507, "lon": -94.4108352}, {"id": 306, "nombre": "Caseta", "lat": 31.5769944, "lon": -106.6666834}, {"id": 307, "nombre": "Caseta", "lat": 32.283813, "lon": -117.0296703}, {"id": 308, "nombre": "Caseta de Cobro ESPERANZA 1 Km 122 + 800", "lat": 32.5516315, "lon": -116.6211114}, {"id": 309, "nombre": "Caseta", "lat": 23.7895835, "lon": -103.7911484}, {"id": 310, "nombre": "Caseta de Cobro RODOLFO ROBLES", "lat": 14.6770176, "lon": -92.1496777}, {"id": 311, "nombre": "Caseta de Cobro EL ARENAL Km 10 + 960", "lat": 20.7788469, "lon": -103.662348}, {"id": 312, "nombre": "Caseta de Cobro LA RUMOROSA", "lat": 32.5558695, "lon": -116.0364858}, {"id": 313, "nombre": "Caseta", "lat": 19.4744022, "lon": -96.7753272}, {"id": 314, "nombre": "Caseta", "lat": 19.1510822, "lon": -99.54373}, {"id": 315, "nombre": "Caseta", "lat": 19.19654, "lon": -99.5252385}, {"id": 316, "nombre": "Plaza de Cobros Nro 87 ZACATECAS", "lat": 22.710785, "lon": -102.4488808}, {"id": 317, "nombre": "Caseta", "lat": 22.8469848, "lon": -102.5632844}, {"id": 318, "nombre": "Caseta", "lat": 24.0362699, "lon": -104.6495653}, {"id": 319, "nombre": "Caseta", "lat": 24.0343762, "lon": -104.6380386}, {"id": 320, "nombre": "Caseta A-2 Km 34+316", "lat": 19.6108845, "lon": -99.0385668}, {"id": 321, "nombre": "Caseta de Cobro Km 21 Ojo de Agua Km 24 + 800", "lat": 19.6186622, "lon": -99.0292301}, {"id": 322, "nombre": "Caseta", "lat": 20.5922932, "lon": -101.1414439}, {"id": 323, "nombre": "Caseta", "lat": 19.8375012, "lon": -99.9455645}, {"id": 324, "nombre": "Caseta de Cobro BERMEJILLO Nro 160", "lat": 25.9237125, "lon": -103.622096}, {"id": 325, "nombre": "Caseta Savalza", "lat": 27.0821947, "lon": -104.8415911}, {"id": 326, "nombre": "Caseta", "lat": 19.4092829, "lon": -103.5279468}, {"id": 327, "nombre": "Plaza de Cobros Jiquipilas KM 62 + 100", "lat": 16.620521, "lon": -93.6021075}, {"id": 328, "nombre": "Caseta de Cobro JOROBAS 1", "lat": 19.8261899, "lon": -99.2499386}, {"id": 329, "nombre": "Caseta", "lat": 20.6988643, "lon": -87.1443441}, {"id": 330, "nombre": "Caseta", "lat": 25.6492669, "lon": -103.3614304}, {"id": 331, "nombre": "Caseta", "lat": 25.6505835, "lon": -103.3692015}, {"id": 332, "nombre": "Caseta de Cobro CD ACU\u00d1A", "lat": 29.3252917, "lon": -100.9284135}, {"id": 333, "nombre": "Caseta", "lat": 28.3033591, "lon": -100.910011}, {"id": 334, "nombre": "Las Vigas", "lat": 19.6305993, "lon": -97.127926}, {"id": 335, "nombre": "Caseta de Cobro MIGUEL ALEMAN", "lat": 26.4028974, "lon": -99.0206686}, {"id": 336, "nombre": "Caseta", "lat": 26.3118827, "lon": -98.8419143}, {"id": 337, "nombre": "Caseta", "lat": 24.0205568, "lon": -104.6910797}, {"id": 338, "nombre": "Caseta de Cobro", "lat": 18.0151304, "lon": -94.4536994}, {"id": 339, "nombre": "Caseta", "lat": 18.9379042, "lon": -98.1355537}, {"id": 340, "nombre": "Caseta Sacramento", "lat": 28.7905632, "lon": -106.139243}, {"id": 341, "nombre": "Caseta", "lat": 28.6034805, "lon": -105.951282}, {"id": 342, "nombre": "Caseta", "lat": 19.2745873, "lon": -97.8264365}, {"id": 343, "nombre": "Caseta", "lat": 32.6280522, "lon": -115.2489303}, {"id": 344, "nombre": "Caseta de Cobro TRAPICHILLO", "lat": 21.571654, "lon": -104.9875612}, {"id": 345, "nombre": "Caseta", "lat": 19.1329863, "lon": -99.7909849}, {"id": 346, "nombre": "Caseta", "lat": 21.8092768, "lon": -101.0152449}, {"id": 347, "nombre": "Caseta", "lat": 26.0121368, "lon": -98.2258476}, {"id": 348, "nombre": "Caseta de Cobro Libramiento Oriente de San Luis Potos\u00ed", "lat": 22.1297328, "lon": -100.8252248}, {"id": 349, "nombre": "Caseta", "lat": 21.9056921, "lon": -99.3851408}, {"id": 350, "nombre": "Caseta", "lat": 32.5335939, "lon": -115.4086063}, {"id": 351, "nombre": "Caseta", "lat": 21.9054626, "lon": -98.9528218}, {"id": 352, "nombre": "Caseta", "lat": 21.9042038, "lon": -98.9554431}, {"id": 353, "nombre": "Caseta De Cobro Loza de Barrera", "lat": 20.983979, "lon": -101.54225}, {"id": 354, "nombre": "Caseta", "lat": 21.5608347, "lon": -104.9679251}, {"id": 355, "nombre": "Caseta", "lat": 32.3751334, "lon": -114.7606915}, {"id": 356, "nombre": "Caseta", "lat": 22.9541674, "lon": -109.9736737}, {"id": 357, "nombre": "Caseta", "lat": 22.9242853, "lon": -109.9173029}, {"id": 358, "nombre": "Plaza de Cobro Nro 95 Durango", "lat": 24.0052173, "lon": -104.7345095}, {"id": 359, "nombre": "Caseta de Cobro Nro 141 LOS CHORROS", "lat": 25.1867663, "lon": -100.7319683}, {"id": 360, "nombre": "Caseta de Cobro HUACHICHIL", "lat": 25.2455174, "lon": -100.8015093}, {"id": 361, "nombre": "Caseta", "lat": 22.3000023, "lon": -100.9713207}, {"id": 362, "nombre": "Caseta de Cobro PLAN DE BARRANCAS Km 69 + 500", "lat": 21.0052818, "lon": -104.144243}, {"id": 363, "nombre": "Ruiz A2", "lat": 21.9530743, "lon": -105.1209648}, {"id": 364, "nombre": "Caseta", "lat": 20.8953612, "lon": -87.4385558}, {"id": 365, "nombre": "Caseta", "lat": 20.9000658, "lon": -87.4350849}, {"id": 366, "nombre": "Caseta", "lat": 25.9876051, "lon": -98.4316434}, {"id": 367, "nombre": "Caseta", "lat": 25.6560293, "lon": -99.6310657}, {"id": 368, "nombre": "Caseta de Cobro PLAYA 1 A2", "lat": 25.4570172, "lon": -101.0637674}, {"id": 369, "nombre": "Caseta de acceso", "lat": 19.3059948, "lon": -99.6948515}, {"id": 370, "nombre": "Caseta", "lat": 25.8742255, "lon": -97.474687}, {"id": 371, "nombre": "Caseta", "lat": 22.3192652, "lon": -100.2847188}, {"id": 372, "nombre": "El Pi\u00f1al", "lat": 20.4588222, "lon": -97.8538513}, {"id": 373, "nombre": "Caseta", "lat": 19.2660851, "lon": -99.2944872}, {"id": 374, "nombre": "Caseta", "lat": 21.0071704, "lon": -101.5115593}, {"id": 375, "nombre": "Plaza de Cobro 13 Puente Tuxpan", "lat": 20.6887146, "lon": -97.4942928}, {"id": 376, "nombre": "Caseta", "lat": 20.3225696, "lon": -102.5665759}, {"id": 377, "nombre": "Caseta", "lat": 19.1271875, "lon": -98.2639171}, {"id": 378, "nombre": "Caseta", "lat": 19.2906275, "lon": -99.4344367}, {"id": 379, "nombre": "Caseta de Cobro QUERETARO 4", "lat": 20.0003558, "lon": -99.4899471}, {"id": 380, "nombre": "Caseta de Cobro QUERETARO 1", "lat": 19.9987075, "lon": -99.48776}, {"id": 381, "nombre": "Caseta de Cobro QUERETARO 2", "lat": 19.9961358, "lon": -99.4896355}, {"id": 382, "nombre": "Caseta de Cobro QUERETARO 3", "lat": 19.997783, "lon": -99.4918697}, {"id": 383, "nombre": "Caseta", "lat": 19.3776019, "lon": -99.0587362}, {"id": 384, "nombre": "Caseta", "lat": 18.9845457, "lon": -99.1091654}, {"id": 385, "nombre": "Caseta", "lat": 19.3055136, "lon": -99.0619254}, {"id": 386, "nombre": "Plaza de Cobro No. 184 ALPUYECA KM 118 + 700", "lat": 18.6986124, "lon": -99.2780759}, {"id": 387, "nombre": "Plaza de Cobro Chapultepec", "lat": 19.5455182, "lon": -101.5358235}, {"id": 388, "nombre": "Plaza de Cobro Cuto", "lat": 19.7107947, "lon": -101.337212}, {"id": 389, "nombre": "Caseta de Cobro JERAHUARO A1", "lat": 19.894485, "lon": -100.6467008}, {"id": 390, "nombre": "Caseta de Cobro JERAHUARO A2", "lat": 19.8936236, "lon": -100.6512098}, {"id": 391, "nombre": "Caseta", "lat": 22.0725421, "lon": -100.6380091}, {"id": 392, "nombre": "Caseta", "lat": 32.2856654, "lon": -117.0327237}, {"id": 393, "nombre": "Caseta", "lat": 31.4309941, "lon": -106.1517048}, {"id": 394, "nombre": "Caseta", "lat": 19.2764926, "lon": -99.1655585}, {"id": 395, "nombre": "Caseta", "lat": 19.2376249, "lon": -99.1461639}, {"id": 396, "nombre": "Caseta para el Ca\u00f1\u00f3n de Tacotalpan", "lat": 19.3674771, "lon": -96.7585401}, {"id": 397, "nombre": "Caseta de Cobro PIEDRAS NEGRAS", "lat": 28.7052293, "lon": -100.5130406}, {"id": 398, "nombre": "Caseta", "lat": 22.1635026, "lon": -101.0792136}, {"id": 399, "nombre": "Caseta de Cobro Nro 56 ZACAPALCO", "lat": 18.5378948, "lon": -99.4474345}, {"id": 400, "nombre": "Caseta de Cobro Nro 11 - PUENTE SINALOA", "lat": 25.5129339, "lon": -108.3476383}, {"id": 401, "nombre": "Caseta", "lat": 28.8027514, "lon": -106.4530215}, {"id": 402, "nombre": "Caseta Contepec", "lat": 19.8757492, "lon": -100.1880484}, {"id": 403, "nombre": "Plaza de Cobro Nro 117 - Paso de los Toros", "lat": 19.0816737, "lon": -96.1984523}, {"id": 404, "nombre": "Plaza de Cobro Suchixtlahuaca KM 141+ +523", "lat": 17.7232051, "lon": -97.3535388}, {"id": 405, "nombre": "Plaza de Cobro 105 XOCHITEPEC", "lat": 18.7749367, "lon": -99.2253315}, {"id": 406, "nombre": "Caseta de Cobro Nro 150 ESPERANZA", "lat": 27.6037016, "lon": -109.9391422}, {"id": 407, "nombre": "Caseta", "lat": 27.3205295, "lon": -109.7195895}, {"id": 408, "nombre": "Plaza de Cobro Nro 151 GUAYMAS", "lat": 28.0364826, "lon": -110.924098}, {"id": 409, "nombre": "Caseta de Peaje Estaci\u00f3n Don Nro 149", "lat": 26.8497657, "lon": -109.373409}, {"id": 410, "nombre": "Caseta de Cobro LEON Linea 8", "lat": 21.0696997, "lon": -101.6791655}, {"id": 411, "nombre": "Caseta de Cobro Libramiento de CULIACAN", "lat": 24.7489089, "lon": -107.5686317}, {"id": 412, "nombre": "Caseta de Peaje Vista Hermosa", "lat": 20.2691589, "lon": -102.4431085}, {"id": 413, "nombre": "Plaza de Cobro MARMOL Km 25 + 150", "lat": 23.4711789, "lon": -106.5696185}, {"id": 414, "nombre": "Caseta de Cobro FELICIANO", "lat": 18.0046336, "lon": -101.9638841}, {"id": 415, "nombre": "Caseta de Cobro PE\u00d1ON TEXCOCO", "lat": 19.5028755, "lon": -98.912676}, {"id": 416, "nombre": "Caseta de Cobro no. 29 Puente Caracol km 113 + 200", "lat": 18.1331261, "lon": -96.136658}, {"id": 417, "nombre": "Caseta de Cobro Puente Libre Comercio", "lat": 26.0216554, "lon": -97.738826}, {"id": 418, "nombre": "Caseta de Cobro Nro 33 PUENTE NACIONAL NAUTLA", "lat": 20.2102208, "lon": -96.7787254}, {"id": 419, "nombre": "Caseta de Cobro NUEVO LAREDO III", "lat": 27.5951763, "lon": -99.5415444}, {"id": 420, "nombre": "Plaza de Cobro Nro 28 PAPALOAPAN", "lat": 18.1595809, "lon": -96.0967109}, {"id": 421, "nombre": "Caseta de Cobro Nro 43 PUENTE NACIONAL TECOLUTLA", "lat": 20.4377841, "lon": -97.0865022}, {"id": 422, "nombre": "Caseta", "lat": 21.0300223, "lon": -102.5552917}, {"id": 423, "nombre": "Puente de la Unidad", "lat": 18.785521, "lon": -91.4948829}, {"id": 424, "nombre": "Plaza de Cobro Villahermosa", "lat": 18.0761908, "lon": -92.9306506}, {"id": 425, "nombre": "Caseta", "lat": 22.9800642, "lon": -105.872493}, {"id": 426, "nombre": "Palmillas", "lat": 20.2909448, "lon": -99.9185638}, {"id": 427, "nombre": "Caseta", "lat": 20.2901122, "lon": -99.9497348}, {"id": 428, "nombre": "Caseta", "lat": 20.0785474, "lon": -87.6098626}, {"id": 429, "nombre": "Caseta", "lat": 19.2536419, "lon": -98.4422594}, {"id": 430, "nombre": "Caseta", "lat": 19.3070937, "lon": -98.8717749}, {"id": 431, "nombre": "Plaza de Cobro Apaseo El Grande", "lat": 20.5111979, "lon": -100.5994577}, {"id": 432, "nombre": "Plaza de Cobro Villahermosa", "lat": 18.0766264, "lon": -92.9366754}, {"id": 433, "nombre": "Caseta", "lat": 17.9475759, "lon": -92.7853016}, {"id": 434, "nombre": "Caseta", "lat": 19.4959538, "lon": -98.9473865}, {"id": 435, "nombre": "Caseta", "lat": 20.6109919, "lon": -97.6144561}, {"id": 436, "nombre": "Caseta", "lat": 19.3746864, "lon": -99.0972406}, {"id": 437, "nombre": "Caseta", "lat": 19.3673661, "lon": -99.0952129}, {"id": 438, "nombre": "Caseta", "lat": 19.3782541, "lon": -99.0867516}, {"id": 439, "nombre": "Caseta", "lat": 28.766679, "lon": -106.7532723}, {"id": 440, "nombre": "Caseta", "lat": 25.6960239, "lon": -100.5772988}, {"id": 441, "nombre": "Caseta", "lat": 25.6073234, "lon": -100.0012359}, {"id": 442, "nombre": "Caseta", "lat": 27.4981083, "lon": -99.5030513}, {"id": 443, "nombre": "Caseta de cobro", "lat": 21.507249, "lon": -105.2010343}, {"id": 444, "nombre": "Plaza De Cobro Mendoza Salamanca-Le\u00f3n", "lat": 20.6730389, "lon": -101.213526}, {"id": 445, "nombre": "Caseta", "lat": 19.7023017, "lon": -99.085166}, {"id": 446, "nombre": "Caseta", "lat": 19.7042356, "lon": -99.0874406}, {"id": 447, "nombre": "Puente Tlacotalpan", "lat": 18.7046402, "lon": -95.6412956}, {"id": 448, "nombre": "Caseta", "lat": 20.5858945, "lon": -103.1006163}, {"id": 449, "nombre": "Caseta", "lat": 21.9392582, "lon": -99.2700546}, {"id": 450, "nombre": "Caseta", "lat": 21.9402217, "lon": -99.273794}, {"id": 451, "nombre": "Caseta", "lat": 19.2949694, "lon": -99.2130288}, {"id": 452, "nombre": "Plaza de Cobro San Nicol\u00e1s", "lat": 19.3556684, "lon": -99.4812203}, {"id": 453, "nombre": "Caseta", "lat": 20.4591074, "lon": -97.2464544}, {"id": 454, "nombre": "Caseta", "lat": 27.6045762, "lon": -109.8987281}, {"id": 455, "nombre": "Caseta", "lat": 19.8804113, "lon": -101.2033768}, {"id": 456, "nombre": "Caseta", "lat": 21.3243253, "lon": -97.6262617}, {"id": 457, "nombre": "Caseta", "lat": 21.3270334, "lon": -97.6275432}, {"id": 458, "nombre": "Caseta Chamapa-Autovan", "lat": 19.4344851, "lon": -99.3035808}, {"id": 459, "nombre": "Caseta", "lat": 20.5975805, "lon": -101.1774583}, {"id": 460, "nombre": "Caseta", "lat": 19.4874954, "lon": -99.3109199}, {"id": 461, "nombre": "Caseta", "lat": 19.4687997, "lon": -99.3113653}, {"id": 462, "nombre": "Caseta", "lat": 19.519043, "lon": -99.2862305}, {"id": 463, "nombre": "Caseta", "lat": 19.3341345, "lon": -99.3132629}, {"id": 464, "nombre": "Caseta", "lat": 19.3357849, "lon": -99.3110305}, {"id": 465, "nombre": "Caseta", "lat": 19.2336099, "lon": -100.07228}, {"id": 466, "nombre": "Plaza de Cobro Ayotuxco", "lat": 19.399903, "lon": -99.3809437}, {"id": 467, "nombre": "Caseta", "lat": 21.8635282, "lon": -99.6233895}, {"id": 468, "nombre": "Caseta", "lat": 22.1563817, "lon": -101.072004}, {"id": 469, "nombre": "Caseta", "lat": 32.6591719, "lon": -115.475648}, {"id": 470, "nombre": "Caseta", "lat": 22.222618, "lon": -100.631662}, {"id": 471, "nombre": "Caseta", "lat": 32.6566518, "lon": -115.4774786}, {"id": 472, "nombre": "Caseta", "lat": 32.5082315, "lon": -116.982813}, {"id": 473, "nombre": "Caseta", "lat": 31.3451742, "lon": -106.423526}, {"id": 474, "nombre": "Caseta", "lat": 19.5825779, "lon": -99.2710871}, {"id": 475, "nombre": "Caseta", "lat": 25.818343, "lon": -100.393278}, {"id": 476, "nombre": "Caseta", "lat": 20.5908949, "lon": -101.1441146}, {"id": 477, "nombre": "Caseta", "lat": 20.5337076, "lon": -100.62764}, {"id": 478, "nombre": "Caseta", "lat": 20.497616, "lon": -100.5881021}, {"id": 479, "nombre": "Caseta", "lat": 19.0831048, "lon": -98.1836621}, {"id": 480, "nombre": "Caseta", "lat": 20.3955359, "lon": -101.9934978}, {"id": 481, "nombre": "Caseta La Piedad - Guadalajara", "lat": 20.3953892, "lon": -101.9981552}, {"id": 482, "nombre": "Caseta", "lat": 20.6191277, "lon": -103.2154911}, {"id": 483, "nombre": "Caseta", "lat": 22.4761013, "lon": -100.3862448}, {"id": 484, "nombre": "Caseta", "lat": 20.7529238, "lon": -97.4825232}, {"id": 485, "nombre": "Caseta", "lat": 18.6527688, "lon": -99.0016705}, {"id": 486, "nombre": "Caseta", "lat": 18.6528495, "lon": -99.0095072}, {"id": 487, "nombre": "Caseta", "lat": 25.9447342, "lon": -98.227585}, {"id": 488, "nombre": "Caseta", "lat": 20.5727674, "lon": -103.1012266}, {"id": 489, "nombre": "Caseta", "lat": 21.0982564, "lon": -101.7786889}, {"id": 490, "nombre": "Caseta", "lat": 19.4358121, "lon": -98.9983274}, {"id": 491, "nombre": "Caseta", "lat": 19.4506231, "lon": -98.9112149}, {"id": 492, "nombre": "Caseta", "lat": 19.4256457, "lon": -98.9985363}, {"id": 493, "nombre": "Caseta", "lat": 19.4653411, "lon": -99.2264436}, {"id": 494, "nombre": "Caseta", "lat": 19.512492, "lon": -99.1613886}, {"id": 495, "nombre": "Caseta", "lat": 20.6201588, "lon": -103.2050252}, {"id": 496, "nombre": "Caseta", "lat": 19.5159429, "lon": -99.1030921}, {"id": 497, "nombre": "Caseta", "lat": 19.5904149, "lon": -88.0713514}, {"id": 498, "nombre": "Plaza de Cobro El Cerrillo", "lat": 19.3262596, "lon": -99.5158714}, {"id": 499, "nombre": "Plaza de Cobro Bosque Real", "lat": 19.4214657, "lon": -99.2994867}, {"id": 500, "nombre": "Caseta", "lat": 19.1315169, "lon": -98.2681462}, {"id": 501, "nombre": "Caseta", "lat": 19.5160946, "lon": -99.2079201}, {"id": 502, "nombre": "Caseta", "lat": 19.379576, "lon": -99.1767517}, {"id": 503, "nombre": "Caseta", "lat": 19.5141276, "lon": -99.1568027}, {"id": 504, "nombre": "Caseta", "lat": 19.5136204, "lon": -99.1649563}, {"id": 505, "nombre": "Caseta de Cobro \"Amado Nervo\"", "lat": 21.0890576, "lon": -104.7173236}, {"id": 506, "nombre": "Caseta Ramal a Compostela", "lat": 21.2044051, "lon": -104.886332}, {"id": 507, "nombre": "Caseta", "lat": 19.046107, "lon": -98.8283641}, {"id": 508, "nombre": "Caseta", "lat": 20.135069, "lon": -98.122695}, {"id": 509, "nombre": "Caseta", "lat": 21.4984933, "lon": -104.8133171}, {"id": 510, "nombre": "Caseta", "lat": 21.5606403, "lon": -104.9710608}, {"id": 511, "nombre": "Caseta", "lat": 20.5880385, "lon": -103.09848}, {"id": 512, "nombre": "Caseta", "lat": 23.8708118, "lon": -105.1914604}, {"id": 513, "nombre": "Caseta", "lat": 19.9332718, "lon": -103.5297824}, {"id": 514, "nombre": "Caseta", "lat": 20.3734455, "lon": -103.5763354}, {"id": 515, "nombre": "Caseta", "lat": 18.2314484, "lon": -99.2153872}, {"id": 516, "nombre": "Ruiz", "lat": 21.9518655, "lon": -105.1160281}, {"id": 517, "nombre": "Caseta", "lat": 20.6154868, "lon": -103.242725}, {"id": 518, "nombre": "Caseta de Cobro ATLACOMULCO II", "lat": 19.9118311, "lon": -99.8526046}, {"id": 519, "nombre": "Caseta", "lat": 16.9111934, "lon": -99.780291}, {"id": 520, "nombre": "Caseta", "lat": 19.0769147, "lon": -98.1500231}, {"id": 521, "nombre": "Caseta", "lat": 22.5032137, "lon": -97.9009497}, {"id": 522, "nombre": "Caseta", "lat": 25.7957201, "lon": -100.457671}, {"id": 523, "nombre": "Caseta", "lat": 20.5886739, "lon": -103.101733}, {"id": 524, "nombre": "Caseta", "lat": 17.7071456, "lon": -92.0175529}, {"id": 525, "nombre": "Caseta", "lat": 21.8054653, "lon": -101.0144075}, {"id": 526, "nombre": "Caseta", "lat": 17.5961271, "lon": -99.3965131}, {"id": 527, "nombre": "Caseta", "lat": 32.5419701, "lon": -117.0265589}, {"id": 528, "nombre": "Plaza de Cobro No. 91 Revoluci\u00f3n", "lat": 19.608976, "lon": -99.0340433}, {"id": 529, "nombre": "Caseta", "lat": 21.9023344, "lon": -98.9529136}, {"id": 530, "nombre": "Caseta", "lat": 28.7236351, "lon": -106.9279911}, {"id": 531, "nombre": "Caseta", "lat": 20.0438837, "lon": -96.6841234}, {"id": 532, "nombre": "Caseta de Cobro \"La Pe\u00f1ita\"", "lat": 21.0700298, "lon": -105.2170133}, {"id": 533, "nombre": "Caseta de Cobro \"Ahuacatlan\"", "lat": 21.0903791, "lon": -104.4376688}, {"id": 534, "nombre": "Caseta", "lat": 32.5465509, "lon": -116.9376062}, {"id": 535, "nombre": "Caseta de Cobro \"Ixtlan del Rio\" Km. 97+500", "lat": 21.0456003, "lon": -104.3630328}, {"id": 536, "nombre": "Caseta", "lat": 19.600624, "lon": -98.9254599}, {"id": 537, "nombre": "Caseta", "lat": 19.6653555, "lon": -99.0020645}, {"id": 538, "nombre": "Caseta", "lat": 32.5397903, "lon": -117.0288214}, {"id": 539, "nombre": "Caseta", "lat": 20.9615174, "lon": -101.3847774}, {"id": 540, "nombre": "Caseta", "lat": 20.9721877, "lon": -101.2997695}, {"id": 541, "nombre": "Caseta", "lat": 22.0059348, "lon": -102.357807}, {"id": 542, "nombre": "Caseta", "lat": 28.1906311, "lon": -108.2094778}, {"id": 543, "nombre": "Caseta", "lat": 28.1766385, "lon": -108.185965}, {"id": 544, "nombre": "Caseta", "lat": 19.1514457, "lon": -99.5482161}, {"id": 545, "nombre": "Caseta", "lat": 20.348432, "lon": -100.2775029}, {"id": 546, "nombre": "Caseta", "lat": 20.0403628, "lon": -96.6802905}, {"id": 547, "nombre": "Caseta", "lat": 20.9844052, "lon": -101.5355825}, {"id": 548, "nombre": "Acaponeta", "lat": 22.4538858, "lon": -105.4247138}, {"id": 549, "nombre": "Caseta", "lat": 26.7105147, "lon": -107.0840163}, {"id": 550, "nombre": "Caseta", "lat": 26.7108068, "lon": -107.3036676}, {"id": 551, "nombre": "Caseta", "lat": 18.1470107, "lon": -94.3969211}, {"id": 552, "nombre": "Caseta", "lat": 25.6222402, "lon": -100.0711515}, {"id": 553, "nombre": "Caseta", "lat": 31.4118164, "lon": -106.1955741}, {"id": 554, "nombre": "Caseta", "lat": 16.9421358, "lon": -99.8225391}, {"id": 555, "nombre": "Caseta", "lat": 16.9383098, "lon": -99.8199057}, {"id": 556, "nombre": "Caseta de Cobro \"La Pe\u00f1ita\"", "lat": 21.0663245, "lon": -105.2180332}, {"id": 557, "nombre": "Caseta de Cobro \"San Vicente\"", "lat": 20.7813998, "lon": -105.3699602}, {"id": 558, "nombre": "Caseta de Cobro \"La Cruz de Huanacaxtle\"", "lat": 20.7749361, "lon": -105.3741611}, {"id": 559, "nombre": "Caseta", "lat": 22.5208425, "lon": -100.6565666}, {"id": 560, "nombre": "Caseta", "lat": 17.3947614, "lon": -91.9910192}, {"id": 561, "nombre": "Caseta", "lat": 17.2545937, "lon": -92.1080374}, {"id": 562, "nombre": "Caseta", "lat": 20.173484, "lon": -102.2438746}, {"id": 563, "nombre": "Caseta", "lat": 20.7796558, "lon": -105.2538912}, {"id": 564, "nombre": "Caseta", "lat": 20.5907853, "lon": -87.1108549}, {"id": 565, "nombre": "Mazapiltepec", "lat": 19.1089446, "lon": -97.6709166}, {"id": 566, "nombre": "Caseta", "lat": 15.9073964, "lon": -96.9280065}, {"id": 567, "nombre": "Caseta", "lat": 16.4691931, "lon": -96.7449381}, {"id": 568, "nombre": "Caseta", "lat": 28.5869934, "lon": -105.54796}, {"id": 569, "nombre": "Caseta", "lat": 16.9083901, "lon": -96.361152}, {"id": 570, "nombre": "Caseta", "lat": 20.2777371, "lon": -100.0590571}, {"id": 571, "nombre": "Caseta", "lat": 16.8996969, "lon": -96.2608588}, {"id": 572, "nombre": "Caseta", "lat": 20.3882362, "lon": -100.0128116}, {"id": 573, "nombre": "Caseta", "lat": 21.3742761, "lon": -104.7088561}]