[
  {
    "name": "Tepotzotl\u00e1n",
    "lat": 19.7079,
    "lon": -99.2233,
    "autopista": "57D"
  },
  {
    "name": "Palmillas",
    "lat": 20.3896,
    "lon": -99.9302,
    "autopista": "57D"
  },
  {
    "name": "San Juan del R\u00edo",
    "lat": 20.3873,
    "lon": -99.9958,
    "autopista": "57D"
  },
  {
    "name": "Quer\u00e9taro",
    "lat": 20.5888,
    "lon": -100.3899,
    "autopista": "57D"
  },
  {
    "name": "San Luis Potos\u00ed",
    "lat": 22.1498,
    "lon": -100.9792,
    "autopista": "57D"
  },
  {
    "name": "Matehuala",
    "lat": 23.6472,
    "lon": -100.6435,
    "autopista": "57D"
  },
  {
    "name": "Los Chorros",
    "lat": 25.3521,
    "lon": -100.9462,
    "autopista": "57D"
  },
  {
    "name": "Saltillo",
    "lat": 25.4232,
    "lon": -100.9954,
    "autopista": "57D"
  },
  {
    "name": "Celaya",
    "lat": 20.5223,
    "lon": -100.8157,
    "autopista": "45D"
  },
  {
    "name": "Salamanca",
    "lat": 20.571,
    "lon": -101.197,
    "autopista": "45D"
  },
  {
    "name": "Irapuato",
    "lat": 20.6767,
    "lon": -101.3563,
    "autopista": "45D"
  },
  {
    "name": "Le\u00f3n",
    "lat": 21.1219,
    "lon": -101.681,
    "autopista": "45D"
  },
  {
    "name": "Lagos de Moreno",
    "lat": 21.3561,
    "lon": -101.9346,
    "autopista": "45D"
  }
]