[
  {
    "id": 1,
    "nombre": "Amozoc",
    "autopista": "150D",
    "km": 30,
    "lat": 19.284754468769798,
    "lon": -96.91670878896673,
    "tarifa_5_ejes": 489
  },
  {
    "id": 2,
    "nombre": "Cuapiaxtla",
    "autopista": "150D",
    "km": 60,
    "lat": 19.084352763080187,
    "lon": -96.51437632970024,
    "tarifa_5_ejes": 345
  },
  {
    "id": 3,
    "nombre": "Cantona",
    "autopista": "150D",
    "km": 90,
    "lat": 19.385335285182222,
    "lon": -96.09069044037311,
    "tarifa_5_ejes": 256
  },
  {
    "id": 4,
    "nombre": "Las Vigas",
    "autopista": "150D",
    "km": 120,
    "lat": 19.451027925832015,
    "lon": -96.22242742990314,
    "tarifa_5_ejes": 297
  },
  {
    "id": 5,
    "nombre": "La Joya",
    "autopista": "150D",
    "km": 150,
    "lat": 19.986057447941562,
    "lon": -96.01158225973674,
    "tarifa_5_ejes": 403
  },
  {
    "id": 6,
    "nombre": "Fortín",
    "autopista": "150D",
    "km": 180,
    "lat": 19.253633598514334,
    "lon": -96.49956807604823,
    "tarifa_5_ejes": 278
  },
  {
    "id": 7,
    "nombre": "Cuitláhuac",
    "autopista": "150D",
    "km": 210,
    "lat": 19.52812624340778,
    "lon": -96.09294831743223,
    "tarifa_5_ejes": 306
  }
]